[
  {
    "id": "1028628",
    "name": "여의도 한강스팟",
    "category_code": "9NK3P0n22w",
    "category": "스팟",
    "lat": 37.5329361,
    "lng": 126.9253573,
    "address": "여의도 서강대교 남단 한강스팟",
    "image": "",
    "source": "ksbf"
  },
  {
    "id": "1028653",
    "name": "그레이 스케이트보드",
    "category_code": "0f5t082E42",
    "category": "사설스케이트파크",
    "lat": 36.809731,
    "lng": 127.1439955,
    "address": "충청남도 천안시 서북구 천안천4길 32 도시재생어울림센터 1층 3호",
    "image": "",
    "source": "ksbf"
  },
  {
    "id": "1029008",
    "name": "영종도 씨사이드 보울파크",
    "category_code": "K4cK7J66T1",
    "category": "공공스케이트파크",
    "lat": 37.4714526,
    "lng": 126.5234753,
    "address": "인천광역시 중구 운남동 1630-4",
    "image": "",
    "source": "ksbf"
  },
  {
    "id": "1029010",
    "name": "안동 청소년수련관 스케이트파크",
    "category_code": "K4cK7J66T1",
    "category": "공공스케이트파크",
    "lat": 36.5590479,
    "lng": 128.7227452,
    "address": "경상북도 안동시 축제장길 42 청소년수련관",
    "image": "",
    "source": "ksbf"
  },
  {
    "id": "1029028",
    "name": "하버스케이트보드 (대정점)",
    "category_code": "0f5t082E42",
    "category": "사설스케이트파크",
    "lat": 36.3159484,
    "lng": 127.322844,
    "address": "대전광역시 유성구 대정북로 68 대정동창고시설",
    "image": "",
    "source": "ksbf"
  },
  {
    "id": "1029168",
    "name": "서울숲 스케이트파크",
    "category_code": "K4cK7J66T1",
    "category": "공공스케이트파크",
    "lat": 37.5450052,
    "lng": 127.0423458,
    "address": "서울특별시 성동구 뚝섬로 273 서울숲",
    "image": "",
    "source": "ksbf"
  },
  {
    "id": "1029815",
    "name": "짱 스케이트보드",
    "category_code": "0f5t082E42",
    "category": "사설스케이트파크",
    "lat": 37.1900874,
    "lng": 127.0523712,
    "address": "경기도 오산시 외삼미로5번길 7",
    "image": "",
    "source": "ksbf"
  },
  {
    "id": "1030118",
    "name": "이재원",
    "category_code": "3365oNuW8C",
    "category": "스케이트보드 강사",
    "lat": 36.3623219,
    "lng": 127.3562683,
    "address": "대전광역시 유성구",
    "image": "",
    "source": "ksbf"
  },
  {
    "id": "1030120",
    "name": "이광우",
    "category_code": "3365oNuW8C",
    "category": "스케이트보드 강사",
    "lat": 37.5070563,
    "lng": 126.7218378,
    "address": "인천광역시 부평구",
    "image": "",
    "source": "ksbf"
  },
  {
    "id": "1030122",
    "name": "지유석",
    "category_code": "3365oNuW8C",
    "category": "스케이트보드 강사",
    "lat": 37.2069179,
    "lng": 127.0373493,
    "address": "경기도 화성시 병점동",
    "image": "",
    "source": "ksbf"
  },
  {
    "id": "1030123",
    "name": "차주민",
    "category_code": "3365oNuW8C",
    "category": "스케이트보드 강사",
    "lat": 37.4762971,
    "lng": 126.9583884,
    "address": "서울특별시 관악구 낙성대동",
    "image": "",
    "source": "ksbf"
  },
  {
    "id": "1030124",
    "name": "차세준",
    "category_code": "3365oNuW8C",
    "category": "스케이트보드 강사",
    "lat": 37.495472,
    "lng": 126.887536,
    "address": "서울특별시 구로구",
    "image": "",
    "source": "ksbf"
  },
  {
    "id": "1030125",
    "name": "성권모",
    "category_code": "3365oNuW8C",
    "category": "스케이트보드 강사",
    "lat": 36.9923537,
    "lng": 127.1126947,
    "address": "경기도 평택시",
    "image": "",
    "source": "ksbf"
  },
  {
    "id": "1030126",
    "name": "진낙식",
    "category_code": "3365oNuW8C",
    "category": "스케이트보드 강사",
    "lat": 36.3525204,
    "lng": 127.3860492,
    "address": "대전광역시 서구 둔산동",
    "image": "",
    "source": "ksbf"
  },
  {
    "id": "1030127",
    "name": "윤채연",
    "category_code": "3365oNuW8C",
    "category": "스케이트보드 강사",
    "lat": 37.199565,
    "lng": 126.831405,
    "address": "경기도 화성시",
    "image": "",
    "source": "ksbf"
  },
  {
    "id": "1030128",
    "name": "김은규",
    "category_code": "3365oNuW8C",
    "category": "스케이트보드 강사",
    "lat": 37.5341081,
    "lng": 127.0816548,
    "address": "서울특별시 광진구 자양동",
    "image": "",
    "source": "ksbf"
  },
  {
    "id": "1030129",
    "name": "이유준",
    "category_code": "3365oNuW8C",
    "category": "스케이트보드 강사",
    "lat": 37.5339125,
    "lng": 127.0824487,
    "address": "서울특별시 광진구 자양동",
    "image": "",
    "source": "ksbf"
  },
  {
    "id": "1030130",
    "name": "안현주",
    "category_code": "3365oNuW8C",
    "category": "스케이트보드 강사",
    "lat": 37.534508,
    "lng": 127.082438,
    "address": "서울특별시 광진구 자양동",
    "image": "",
    "source": "ksbf"
  },
  {
    "id": "1064802",
    "name": "스톤브릿지보드샵",
    "category_code": "HKP2zu7I62",
    "category": "스케이트샵",
    "lat": 37.6007244,
    "lng": 127.1569874,
    "address": "경기도 남양주시 가운로2길 55 메티스프라자 150-1호",
    "image": "https://cdn.imweb.me/upload/S2022091721448a609ed95/cb4728c4089fb.jpg",
    "source": "ksbf"
  },
  {
    "id": "1064803",
    "name": "구리 왕숙교 아래 스팟",
    "category_code": "9NK3P0n22w",
    "category": "스팟",
    "lat": 37.6034102,
    "lng": 127.1487819,
    "address": "경기도 구리시 수택동 366-3",
    "image": "",
    "source": "ksbf"
  },
  {
    "id": "1094499",
    "name": "비스트 스케이트파크",
    "category_code": "0f5t082E42",
    "category": "사설스케이트파크",
    "lat": 37.3499309,
    "lng": 127.2160651,
    "address": "경기도 광주시 문형동  295-1번지",
    "image": "https://cdn.imweb.me/upload/S2022091721448a609ed95/86bd11a3cd1d7.jpg",
    "source": "ksbf"
  },
  {
    "id": "1094512",
    "name": "이상이 보드스쿨",
    "category_code": "0f5t082E42",
    "category": "사설스케이트파크",
    "lat": 37.5290164,
    "lng": 127.0829172,
    "address": "서울특별시 광진구 뚝섬로56길 55 유진빌딩 지하1층",
    "image": "https://cdn.imweb.me/upload/S2022091721448a609ed95/2c8953d777e2f.jpg",
    "source": "ksbf"
  },
  {
    "id": "1095133",
    "name": "세종스케이트보드파크",
    "category_code": "0f5t082E42",
    "category": "사설스케이트파크",
    "lat": 36.4940177,
    "lng": 127.3674781,
    "address": "세종특별자치시 부강면 부강금호로 521-37 1층",
    "image": "https://cdn.imweb.me/upload/S2022091721448a609ed95/70c6b4f051f75.png",
    "source": "ksbf"
  },
  {
    "id": "1095662",
    "name": "시루자파크 메종 동부산",
    "category_code": "0f5t082E42",
    "category": "사설스케이트파크",
    "lat": 35.1928254,
    "lng": 129.214956,
    "address": "부산광역시 기장군 기장읍 동부산관광로 8 B동 1층",
    "image": "https://cdn.imweb.me/upload/S2022091721448a609ed95/7920920326b3a.jpg",
    "source": "ksbf"
  },
  {
    "id": "1095663",
    "name": "시루자파크 양평본점",
    "category_code": "0f5t082E42",
    "category": "사설스케이트파크",
    "lat": 37.4910459,
    "lng": 127.5261742,
    "address": "경기도 양평군 양평읍 중앙로 346 도곡리 579-3",
    "image": "https://cdn.imweb.me/upload/S2022091721448a609ed95/efe1dae57d294.jpg",
    "source": "ksbf"
  },
  {
    "id": "1124730",
    "name": "은파호수공원 인라인장",
    "category_code": "9NK3P0n22w",
    "category": "스팟",
    "lat": 35.9553564,
    "lng": 126.6890571,
    "address": "전라북도 군산시 은파순환길 9 은파호수공원관리사무소 인라인장",
    "image": "https://cdn.imweb.me/upload/S2022091721448a609ed95/940d30f711f77.jpg",
    "source": "ksbf"
  },
  {
    "id": "1128842",
    "name": "오늘은요까이 스케이트파크",
    "category_code": "0f5t082E42",
    "category": "사설스케이트파크",
    "lat": 35.8844758,
    "lng": 128.6141794,
    "address": "대구광역시 동구 평화로 2 지하1층",
    "image": "https://cdn.imweb.me/upload/S2022091721448a609ed95/d003a8e6320bd.png",
    "source": "ksbf"
  },
  {
    "id": "1129225",
    "name": "파주언더그라운드",
    "category_code": "0f5t082E42",
    "category": "사설스케이트파크",
    "lat": 37.7635589,
    "lng": 126.7761303,
    "address": "경기도 파주시 마무리길 90 대도빌딩 지하1층",
    "image": "https://cdn.imweb.me/upload/S2022091721448a609ed95/94b2149f2122a.jpg",
    "source": "ksbf"
  },
  {
    "id": "1129254",
    "name": "K88SKATECLUB",
    "category_code": "0f5t082E42",
    "category": "사설스케이트파크",
    "lat": 37.514378,
    "lng": 126.7048616,
    "address": "인천광역시 부평구 세월천로40번길 23 2층",
    "image": "https://cdn.imweb.me/upload/S2022091721448a609ed95/0acf121a6a316.jpg",
    "source": "ksbf"
  },
  {
    "id": "1130428",
    "name": "스탈보드파크",
    "category_code": "0f5t082E42",
    "category": "사설스케이트파크",
    "lat": 37.2635005,
    "lng": 126.9946045,
    "address": "경기도 수원시 권선구 세화로 127 지하1",
    "image": "https://cdn.imweb.me/upload/S2022091721448a609ed95/537516ab4d934.jpeg",
    "source": "ksbf"
  },
  {
    "id": "1130468",
    "name": "원주 국민체육센터 X게임장",
    "category_code": "K4cK7J66T1",
    "category": "공공스케이트파크",
    "lat": 37.3351909,
    "lng": 127.9479203,
    "address": "강원도 원주시 명륜동 243",
    "image": "https://cdn.imweb.me/upload/S2022091721448a609ed95/1352715f82988.jpg",
    "source": "ksbf"
  },
  {
    "id": "1131790",
    "name": "난지한강공원 스케이트파크",
    "category_code": "K4cK7J66T1",
    "category": "공공스케이트파크",
    "lat": 37.5653463,
    "lng": 126.8795153,
    "address": "서울특별시 마포구 상암동 482-161",
    "image": "https://cdn.imweb.me/upload/S2022091721448a609ed95/b599620aba148.png",
    "source": "ksbf"
  },
  {
    "id": "1131805",
    "name": "새들공원 스케이트파크",
    "category_code": "K4cK7J66T1",
    "category": "공공스케이트파크",
    "lat": 35.963156,
    "lng": 126.7090433,
    "address": "전라북도 군산시 수송동 785",
    "image": "",
    "source": "ksbf"
  },
  {
    "id": "1137695",
    "name": "문학대공원 하프파이프",
    "category_code": "K4cK7J66T1",
    "category": "공공스케이트파크",
    "lat": 35.8276686,
    "lng": 127.1097689,
    "address": "전라북도 전주시 완산구 유연로 217-24",
    "image": "https://cdn.imweb.me/upload/S2022091721448a609ed95/f843e8e09d40a.jpg",
    "source": "ksbf"
  }
]